{
  "users": [],
  "department": [
    {
      "name": "Happy code `1",
      "businessArea": "Технологии и информационные технологии",
      "categoryName": "разработка ПО",
      "country": "Россия",
      "city": "Екатеринбург",
      "location": {
        "address": "Россия, Свердловская область, Екатеринбург, улица Блюхера, 41",
        "district": "Кировский",
        "latitude": 60.641887,
        "longitude": 56.85279,
        "zoom": 8
      },
      "phoneNumber": "",
      "workMode": "10:00-22:00",
      "id": 1
    },
    {
      "name": "Joker",
      "businessArea": "Образование и тренинги",
      "categoryName": "Rfewfew",
      "country": "Россия",
      "city": "Екатеринбург",
      "location": {
        "address": "Франция",
        "district": "Ашановский",
        "latitude": 1.943388,
        "longitude": 46.790884,
        "zoom": 8
      },
      "phoneNumber": "",
      "workMode": "10:00-22:00",
      "id": 2
    },
    {
      "name": "Joker",
      "businessArea": "Образование и тренинги",
      "categoryName": "Rfewfew",
      "country": "Россия",
      "city": "Екатеринбург",
      "location": {
        "address": "Франция",
        "district": "Ашановский",
        "latitude": 1.943388,
        "longitude": 46.790884,
        "zoom": 8
      },
      "phoneNumber": "",
      "workMode": "10:00-22:00",
      "id": 3
    },
    {
      "name": "Joker",
      "businessArea": "Образование и тренинги",
      "categoryName": "Rfewfew",
      "country": "Россия",
      "city": "Екатеринбург",
      "location": {
        "address": "Франция",
        "district": "Ашановский",
        "latitude": 1.943388,
        "longitude": 46.790884,
        "zoom": 8
      },
      "phoneNumber": "",
      "workMode": "10:00-22:00",
      "id": 4
    } ,
    {
      "name": "Mfw",
      "businessArea": "Реклама и маркетинг",
      "categoryName": "rfnyujhbz",
      "country": "Россия",
      "city": "Екатеринбург",
      "location": {
        "address": "москва",
        "district": "пионерка",
        "latitude": 56.85279,
        "longitude": 60.641887,
        "zoom": 8
      },
      "phoneNumber": "",
      "workMode": "",
      "id": 5
    }
  ],
  "events": [
    {
      "service_name": "йцукн",
      "date": "2023-11-12T00:00:00.000Z",
      "start_time": "09:30",
      "end_time": "12:00",
      "id": 2
    },
    {
      "service_name": "1234",
      "date": "2023-11-13T00:00:00.000Z",
      "start_time": "09:36",
      "end_time": "12:36",
      "id": 3
    },
    {
      "service_name": "пкурноге",
      "date": "2023-11-10T00:00:00.000Z",
      "start_time": "15:00",
      "end_time": "19:00",
      "id": 4
    },
    {
      "service_name": "dwadwa",
      "date": "2023-11-16T00:00:00.000Z",
      "start_time": "13:20",
      "end_time": "14:01",
      "id": 5
    },
    {
      "service_name": "432354262g2ht3h63",
      "date": "2023-11-14T00:00:00.000Z",
      "start_time": "13:10",
      "end_time": "17:28",
      "id": 6
    },
    {
      "service_name": "пкурноге",
      "date": "2023-11-18T00:00:00.000Z",
      "start_time": "10:10",
      "end_time": "15:45",
      "id": 7
    },
    {
      "service_name": "пкурноге",
      "date": "2023-11-11T00:00:00.000Z",
      "start_time": "10:40",
      "end_time": "20:26",
      "id": 8
    },
    {
      "service_name": "пклуцпк",
      "date": "2023-11-20T00:00:00.000Z",
      "start_time": "11:00",
      "end_time": "16:00",
      "id": 9
    }
  ]
}
